City_ID,City,Lat,Lng,Max Temp,Humidity,Cloudiness,Wind Speed,Country,Date
0,Holualoa,19.6228,-155.9522,301.23,69,0,3.6,US,1697143034
1,Ad Dabbah,18.05,30.95,305.6,18,0,9.32,SD,1697143027
2,Port-Aux-Francais,-49.35,70.2167,275.34,81,79,7.35,TF,1697142925
3,Waitangi,-43.9535,-176.5597,283.61,76,88,4.02,NZ,1697142472
4,Port-Cartier,50.0334,-66.8654,284.12,93,100,2.19,CA,1697143034
5,Avarua,-21.2078,-159.775,298.18,78,20,3.09,CK,1697143034
6,Domna,51.8971,113.1573,275.24,75,4,2.0,RU,1697143034
7,Iqaluit,63.7506,-68.5145,273.0,80,40,1.03,CA,1697143034
8,Yellowknife,62.456,-114.3525,279.44,100,100,1.54,CA,1697142901
9,Puerto Natales,-51.7236,-72.4875,286.4,50,20,10.29,CL,1697142786
10,Fortuna,40.5982,-124.1573,293.67,67,0,1.34,US,1697143035
11,Tiksi,71.6872,128.8694,268.26,96,100,4.35,RU,1697143035
12,Albany,42.6001,-73.9662,290.7,61,52,3.63,US,1697143035
13,Bethel,41.3712,-73.414,294.27,49,0,1.54,US,1697143005
14,Nanfeng,23.7434,111.7959,294.3,84,93,1.32,CN,1697143035
15,Poronaysk,49.2167,143.1167,282.75,67,0,1.57,RU,1697143035
16,Mejit,10.2753,170.8646,300.74,79,40,4.0,MH,1697143035
17,Wailua Homesteads,22.0669,-159.378,301.55,67,40,5.14,US,1697143030
18,Palikir - National Government Center,6.9248,158.1611,297.56,100,100,2.06,FM,1697143035
19,Papatowai,-46.5619,169.4708,288.21,52,94,6.72,NZ,1697143035
20,Puerto Ayora,-0.7393,-90.3518,301.13,75,75,5.38,EC,1697142742
21,Tralee,52.2704,-9.7026,284.99,96,100,1.93,IE,1697143006
22,Gadzhiyevo,69.2551,33.3362,276.56,84,100,10.84,RU,1697142796
23,Jamestown,42.097,-79.2353,288.92,62,75,4.63,US,1697143036
24,Kattivakkam,13.2167,80.3167,301.52,80,100,2.24,IN,1697143036
25,Bikenibeu Village,1.3673,173.1241,303.13,74,20,1.03,KI,1697143036
26,Coruripe,-10.1256,-36.1756,298.11,82,5,6.35,BR,1697142953
27,Kasongo-Lunda,-6.4667,16.8167,294.75,91,98,1.07,CD,1697143036
28,Isafjordur,66.0755,-23.124,273.74,94,100,15.1,IS,1697142938
29,Stanley,54.868,-1.6985,279.7,90,0,1.54,GB,1697142849
30,Atyashevo,54.5644,46.0691,280.88,67,100,11.17,RU,1697143036
31,Ponta Delgada,37.7333,-25.6667,293.81,83,20,5.66,PT,1697143036
32,Blackmans Bay,-43.0167,147.3167,282.22,87,85,0.45,AU,1697143037
33,Barcelos,41.5388,-8.6151,297.55,49,100,1.81,PT,1697142922
34,Edinburgh Of The Seven Seas,-37.0676,-12.3116,286.15,79,27,3.4,SH,1697143037
35,Port Elizabeth,-33.918,25.5701,290.31,81,0,9.77,ZA,1697143037
36,Mana,5.6592,-53.7767,301.3,75,47,5.2,GF,1697143037
37,Lihue,21.9789,-159.3672,301.89,69,40,5.14,US,1697143037
38,Anadyr,64.75,177.4833,278.43,93,75,10.0,RU,1697142751
39,Salinopolis,-0.6136,-47.3561,300.74,76,92,5.11,BR,1697143037
40,Dubai,25.2582,55.3047,305.11,62,0,1.03,AE,1697142658
41,Fada,9.5667,8.3,293.98,85,100,0.81,NG,1697143037
42,Aykhal,66.0,111.5,268.74,78,60,4.92,RU,1697142799
43,Bredasdorp,-34.5322,20.0403,287.18,78,96,4.83,ZA,1697142929
44,Adamstown,-25.066,-130.1015,293.99,70,97,5.15,PN,1697143038
45,Sitka,57.0531,-135.33,286.09,71,100,9.77,US,1697143028
46,Laguna,38.421,-121.4238,299.42,35,0,4.63,US,1697143017
47,Vila Velha,-20.3297,-40.2925,300.12,81,0,9.26,BR,1697143038
48,Connell,46.6635,-118.8611,290.93,56,1,2.24,US,1697142926
49,Constantia,44.1833,28.65,287.53,73,0,6.31,RO,1697143038
50,Plesetsk,62.708,40.2916,278.73,79,95,5.57,RU,1697143038
51,Ugoofaaru,5.6667,73.0,300.32,79,98,3.87,MV,1697143038
52,Payyannur,12.1,75.2,298.13,93,97,1.29,IN,1697143038
53,Oranjemund,-28.55,16.4333,288.23,88,0,4.66,NA,1697143038
54,Tsiombe,-25.3,45.4833,294.25,79,52,7.4,MG,1697142962
55,Beau Vallon,-20.4189,57.6953,295.49,79,8,2.83,MU,1697143039
56,Grytviken,-54.2811,-36.5092,270.85,90,100,1.06,GS,1697143039
57,Vilhena,-12.7406,-60.1458,300.27,69,75,4.12,BR,1697143039
58,Longyearbyen,78.2186,15.6401,271.06,64,75,4.63,SJ,1697142899
59,Ushuaia,-54.8,-68.3,281.96,56,20,15.43,AR,1697142933
60,Ar Ruways,24.1103,52.7306,303.2,64,0,2.68,AE,1697143039
61,Iacu,-12.7672,-40.2117,302.72,32,10,2.15,BR,1697143039
62,Margaret River,-33.95,115.0667,283.21,88,7,4.2,AU,1697142934
63,Bereznik,62.8551,42.7072,280.1,80,100,5.49,RU,1697143039
64,Crane,31.3974,-102.3501,305.47,17,0,10.43,US,1697143039
65,Callao,-12.0667,-77.15,293.31,73,75,3.6,PE,1697143040
66,Udachny,66.4167,112.4,266.18,85,54,4.18,RU,1697142181
67,Peace River,56.2501,-117.286,289.32,67,75,4.12,CA,1697142985
68,Faya-Largeau,17.9257,19.1043,304.42,20,4,6.31,TD,1697143040
69,Puerto Deseado,-47.7503,-65.8938,284.04,50,62,4.94,AR,1697143040
70,Sitangkai,4.6628,119.3928,301.67,72,100,2.67,PH,1697142962
71,Pingliang,35.5392,106.6861,283.22,82,100,3.37,CN,1697143040
72,Taunsa,30.7048,70.6505,299.0,19,0,1.23,PK,1697143040
73,Port Saint John'S,-31.6229,29.5448,290.21,81,43,3.34,ZA,1697143040
74,Helong,42.5397,128.9972,280.86,68,80,2.06,CN,1697143040
75,Sweetwater,25.7634,-80.3731,307.59,64,75,6.69,US,1697143041
76,Cockburn Town,21.4612,-71.1419,302.22,77,94,5.97,TC,1697143041
77,Klyuchi,52.2667,79.1667,279.86,81,100,2.48,RU,1697142948
78,Hilo,19.7297,-155.09,302.09,75,100,2.24,US,1697142870
79,Tura,25.5198,90.2201,294.27,77,0,1.08,IN,1697143041
80,Qaqortoq,60.7167,-46.0333,276.19,81,99,4.13,GL,1697142980
81,Invercargill,-46.4,168.35,288.72,59,96,7.15,NZ,1697143041
82,Mokopane,-24.1944,29.0097,299.01,26,66,1.44,ZA,1697143041
83,Hermanus,-34.4187,19.2345,287.74,79,100,4.25,ZA,1697143041
84,Ribeira Grande,38.5167,-28.7,293.37,77,20,3.09,PT,1697143041
85,Saint-Joseph,-21.3667,55.6167,295.36,86,56,3.05,RE,1697142676
86,Minas De Marcona,-15.2119,-75.1103,291.44,63,37,6.07,PE,1697142959
87,Vangviang,18.9333,102.45,294.7,98,80,1.01,LA,1697143042
88,Priyutnoye,46.1011,43.5072,278.75,52,0,4.12,RU,1697143042
89,Kota Belud,6.351,116.4305,298.14,87,100,1.73,MY,1697143042
90,Alwar,27.5667,76.6,298.91,26,0,1.21,IN,1697143042
91,Punta Arenas,-53.15,-70.9167,284.21,62,20,13.38,CL,1697142934
92,Tofol,5.3248,163.0078,301.62,74,46,3.61,FM,1697143042
93,Ilanskiy,56.2358,96.065,278.72,77,100,3.38,RU,1697142797
94,Iskateley,67.6803,53.1512,274.27,76,100,4.02,RU,1697143042
95,Artesia,33.8658,-118.0831,304.64,55,0,5.14,US,1697143042
96,Hawaiian Paradise Park,19.5933,-154.9731,301.97,72,100,2.06,US,1697143042
97,Al Jawf,29.5,38.75,296.01,41,0,3.25,SA,1697143043
98,Al Mindak,20.1588,41.2834,295.93,23,0,3.19,SA,1697143043
99,Igarka,67.4667,86.5833,274.28,99,100,2.72,RU,1697143043
100,Basse-Terre,16.1667,-61.6667,301.73,70,20,4.12,GP,1697143043
101,Oltinko'L,40.8011,72.1634,292.65,29,98,1.14,UZ,1697143043
102,Huanggang,23.677,116.9996,297.09,80,87,1.12,CN,1697143043
103,Greymouth,-42.4667,171.2,284.59,94,98,0.99,NZ,1697143043
104,Happy Valley-Goose Bay,53.3168,-60.3315,284.32,82,75,5.14,CA,1697143043
105,Rongelap,11.1635,166.8941,301.37,77,46,4.52,MH,1697143044
106,Ilulissat,69.2167,-51.1,269.16,58,75,1.03,GL,1697142935
107,Gisborne,-38.6533,178.0042,288.84,56,0,2.4,NZ,1697143044
108,Ketchikan,55.3422,-131.6461,287.14,76,100,6.69,US,1697142979
109,Priozersk,61.0393,30.1291,280.34,42,100,7.61,RU,1697143044
110,San Rafael Del Sur,11.8485,-86.4384,306.69,77,64,3.11,NI,1697143044
111,Vernon,50.2581,-119.2691,292.46,55,7,1.54,CA,1697143044
112,Palmerston,-12.486,130.9833,298.65,88,9,1.03,AU,1697143044
113,Benguela,-12.5763,13.4055,296.26,84,62,4.47,AO,1697143044
114,Aasiaat,68.7098,-52.8699,264.15,84,94,3.94,GL,1697143044
115,Kenai,60.5544,-151.2583,275.45,98,100,3.6,US,1697142892
116,Ndele,8.4109,20.6473,296.43,87,28,0.27,CF,1697143045
117,Ribeira Brava,32.65,-17.0667,301.0,19,100,1.83,PT,1697143045
118,Sao Raimundo Das Mangabeiras,-7.0219,-45.4811,305.37,29,8,1.64,BR,1697143045
119,Vorgashor,67.5833,63.95,272.58,73,100,6.52,RU,1697143045
120,Auki,-8.7676,160.7034,298.49,87,100,1.75,SB,1697143045
121,Mogocha,53.7333,119.7667,278.57,66,39,1.79,RU,1697143045
122,Haiku-Pauwela,20.9219,-156.3051,301.16,65,20,8.75,US,1697143045
123,Kapa'A,22.0752,-159.319,302.3,65,40,5.14,US,1697143045
124,Usogorsk,63.4106,48.6872,275.74,96,100,4.93,RU,1697143045
125,Launceston,-41.45,147.1667,284.15,87,40,1.03,AU,1697143046
126,Podujeva,42.9106,21.1931,288.93,50,0,0.95,XK,1697142763
127,Kapuskasing,49.4169,-82.4331,283.2,87,75,4.12,CA,1697142997
128,Port Lincoln,-34.7333,135.8667,286.75,71,99,5.55,AU,1697142976
129,Arkhangel'Sk,64.5401,40.5433,277.66,94,77,2.38,RU,1697142956
130,Kalamata,37.0389,22.1142,293.21,64,0,2.24,GR,1697143046
131,Rawson,-43.3002,-65.1023,283.75,49,8,4.19,AR,1697143046
132,Colonia,50.9333,6.95,291.09,94,100,3.09,DE,1697143046
133,Ed Damer,17.5928,33.9592,306.83,26,0,6.51,SD,1697143046
134,Hamilton,39.1834,-84.5333,300.61,48,0,4.12,US,1697142409
135,Kerikeri,-35.2268,173.9474,286.43,95,15,0.89,NZ,1697143017
136,Bilibino,68.0546,166.4372,263.13,91,100,2.09,RU,1697143046
137,Ujae,8.9322,165.7642,301.28,77,97,3.77,MH,1697143047
138,Dudinka,69.4058,86.1778,274.64,93,98,6.71,RU,1697143047
139,Labytnangi,66.6572,66.4183,272.16,92,100,3.99,RU,1697143047
140,Puerto Ayacucho,5.6639,-67.6236,306.41,57,35,1.1,VE,1697142821
141,New Haven,41.4001,-72.9329,294.48,51,0,2.57,US,1697142939
142,Grantsville,40.5999,-112.4644,282.35,78,100,2.06,US,1697143047
143,Xylofagou,34.9772,33.8492,297.31,77,0,2.33,CY,1697143047
144,Damavand,35.7178,52.065,285.16,76,81,2.03,IR,1697143047
145,Impfondo,1.6381,18.0667,297.85,72,5,0.66,CG,1697143047
146,Salekhard,66.53,66.6019,272.15,91,100,4.53,RU,1697142919
147,Mahina,-17.5065,-149.489,302.02,65,40,4.63,PF,1697143048
148,San Ramon De La Nueva Oran,-23.1322,-64.326,295.05,43,100,1.06,AR,1697143048
149,Yabucoa,18.0505,-65.8793,305.75,85,53,4.3,PR,1697143048
150,Libertad,8.9442,125.5019,296.98,94,44,1.37,PH,1697143048
151,Enriquillo,17.9,-71.2333,305.97,72,75,3.59,DO,1697143048
152,Pedra,-8.4969,-36.9408,299.38,48,73,3.52,BR,1697143048
153,Ulladulla,-35.35,150.4667,284.69,71,0,2.77,AU,1697143048
154,College,64.8569,-147.8028,271.93,82,100,1.54,US,1697143048
155,Hasaki,35.7333,140.8333,287.2,50,3,5.5,JP,1697143048
156,Kodiak,57.79,-152.4072,276.88,65,100,6.69,US,1697143049
157,Ust'-Ilimsk,58.0006,102.6619,277.28,75,100,3.13,RU,1697143049
158,Geraldton,-28.7667,114.6,295.38,24,100,5.14,AU,1697143015
159,Tazovsky,67.4667,78.7,273.68,97,100,1.96,RU,1697143049
160,Ribas Do Rio Pardo,-20.4431,-53.7592,308.31,33,82,5.87,BR,1697143049
161,Olonkinbyen,70.9221,-8.7187,273.18,83,94,9.53,SJ,1697143049
162,I-N-Salah,27.1935,2.4607,303.84,18,61,8.84,DZ,1697143049
163,Chibougamau,49.9168,-74.3659,282.94,76,100,3.09,CA,1697143049
164,Coquimbo,-29.9533,-71.3436,292.0,59,0,6.17,CL,1697142751
165,Chernyshevskiy,63.0128,112.4714,271.2,89,95,2.59,RU,1697143049
166,Tamalous,36.8376,6.6402,295.75,50,3,1.9,DZ,1697143050
167,Castillos,-34.1667,-53.8333,282.26,62,5,4.58,UY,1697143050
168,Reggane,26.7158,0.1714,302.64,19,3,6.94,DZ,1697143050
169,Cabo San Lucas,22.8909,-109.9124,306.82,61,0,8.75,MX,1697143018
170,Kinango,-4.1372,39.3153,295.33,92,97,1.8,KE,1697143050
171,Harper,4.375,-7.7169,298.5,88,91,2.57,LR,1697143035
172,Rio Grande,-32.035,-52.0986,287.21,66,79,6.78,BR,1697143050
173,Mokhsogollokh,61.4681,128.9203,274.94,96,100,2.48,RU,1697143050
174,Imaricho-Ko,33.2667,129.8833,291.94,75,97,1.72,JP,1697143050
175,Nadi,-17.8,177.4167,296.15,83,75,2.06,FJ,1697142893
176,Grand Baie,-20.0182,57.5802,295.62,72,9,1.94,MU,1697143018
177,Mikhaylovka,50.06,43.2379,281.36,36,100,7.81,RU,1697143051
178,Port Mathurin,-19.6833,63.4167,296.27,74,1,3.72,MU,1697142922
179,Quellon,-43.1167,-73.6167,282.5,65,50,4.36,CL,1697142789
180,Monrovia,6.3005,-10.7969,299.02,83,77,3.3,LR,1697142916
181,Galappo,-4.2667,35.85,294.65,53,99,2.59,TZ,1697143051
182,Kudahuvadhoo,2.6708,72.8944,301.28,68,95,4.55,MV,1697143051
183,Saipan,15.1355,145.701,301.54,94,100,6.69,MP,1697143051
184,West Island,-12.1568,96.8225,298.14,78,75,5.66,CC,1697143051
185,Farap,39.1704,63.6116,280.15,76,75,3.09,TM,1697143051
186,Kailua-Kona,19.6406,-155.9956,303.3,69,0,3.6,US,1697143051
187,Lazaro Cardenas,17.9583,-102.2,301.16,81,60,1.77,MX,1697143052
188,Vadso,70.0744,29.7487,277.64,87,75,7.72,NO,1697143052
189,Abaza,52.655,90.0928,283.01,76,100,1.21,RU,1697143052
190,Palopo,-2.9996,120.1921,297.38,80,100,1.32,ID,1697143052
191,Vorkuta,67.5,64.0,272.97,71,100,6.7,RU,1697143052
192,Manhattan,40.7834,-73.9662,295.94,38,0,4.63,US,1697142986
193,Gradiska,45.1411,17.25,288.29,75,21,0.96,BA,1697143052
194,Palmer,42.1584,-72.3287,293.19,46,75,1.34,US,1697143052
195,San Antonio De Pale,-1.4014,5.6325,298.49,84,68,4.98,GQ,1697143052
196,Whitehorse,60.7161,-135.0538,279.87,71,75,4.63,CA,1697142945
197,Madalena,41.2162,-8.3345,296.23,49,95,1.52,PT,1697143053
198,Mammoth Lakes,37.6485,-118.9721,284.96,29,0,2.57,US,1697142774
199,Northam,51.0333,-4.2167,288.85,98,100,4.93,GB,1697143053
200,Charters Towers,-20.1,146.2667,291.54,78,8,2.34,AU,1697143053
201,Krasnoural'Sk,58.3638,60.0407,274.66,96,100,6.77,RU,1697143053
202,Anderstorp,58.8833,14.2833,281.28,72,7,4.36,SE,1697143053
203,Borogontsy,62.6683,131.1683,275.53,71,100,4.92,RU,1697143053
204,Utrik,11.2278,169.8474,301.0,78,31,4.79,MH,1697143053
205,Tutoia,-2.7619,-42.2744,299.92,83,3,4.75,BR,1697143053
206,Polyarnyy,69.1989,33.4478,276.52,86,100,10.41,RU,1697142958
207,Phek,25.6667,94.5,284.75,99,27,0.32,IN,1697143054
208,Butte,39.6499,-121.5677,298.7,28,0,4.63,US,1697143054
209,Lospalos,-8.5186,127.0025,294.03,94,37,1.49,TL,1697143054
210,Tansen,27.8673,83.5467,288.15,91,0,1.76,NP,1697143054
211,Atambua,-9.1061,124.8925,294.57,83,2,1.77,ID,1697143054
212,Chonchi,-42.6128,-73.8092,285.71,66,77,1.1,CL,1697142963
213,Kone,-21.0595,164.8658,294.93,72,38,2.0,NC,1697143054
214,Badger,64.8,-147.5333,271.88,82,100,1.54,US,1697142973
215,Argo,37.6333,22.7333,289.14,56,0,1.39,GR,1697143054
216,Lebu,-37.6167,-73.65,284.17,73,0,10.01,CL,1697142974
217,Ust-Nera,64.5667,143.2,257.71,99,88,2.24,RU,1697143054
218,Remire-Montjoly,4.9167,-52.2667,304.17,66,0,5.66,GF,1697143055
219,Tianpeng,30.9866,103.9393,289.41,88,100,1.07,CN,1697143055
220,Toliara,-23.35,43.6667,297.24,77,1,2.31,MG,1697142933
221,Khanbari,27.3747,87.2039,290.21,83,0,1.6,NP,1697143055
222,Kijang,35.2442,129.2139,286.0,69,100,3.51,KR,1697143055
223,Arteche,12.2645,125.4048,298.23,91,37,1.4,PH,1697143055
224,Hadibu,12.65,54.0333,300.29,81,48,2.11,YE,1697142976
225,Eastham,41.8301,-69.9739,292.59,71,17,3.35,US,1697142867
226,Siem Reap,13.5,104.0,299.01,95,97,1.2,KH,1697143055
227,Holmsund,63.706,20.3641,275.34,86,40,1.34,SE,1697143055
228,Mayna,54.1135,47.6231,281.42,51,100,10.86,RU,1697143055
229,Levuka,50.1834,-105.4011,283.05,53,40,7.2,CA,1697143056
230,Paka,4.6374,103.4368,298.14,94,67,0.0,MY,1697143056
231,Krasnopavlivka,49.1372,36.3272,282.5,51,100,7.48,UA,1697143056
232,Yuzhno-Kurilsk,44.0306,145.8556,286.14,70,0,2.46,RU,1697143056
233,Boende,-0.2167,20.8667,296.46,84,21,0.46,CD,1697143056
234,Rumonge,-3.9736,29.4386,297.81,71,94,2.96,BI,1697143056
235,Gao,16.6362,1.637,305.14,12,0,4.3,ML,1697143056
236,San Patricio,28.017,-97.5169,304.12,64,69,6.02,US,1697143056
237,Thompson,55.7435,-97.8558,285.24,62,20,1.54,CA,1697143056
238,Sisimiut,66.9395,-53.6735,273.11,61,100,2.18,GL,1697143056
239,Yura,-16.2522,-71.6797,295.44,21,20,4.63,PE,1697143057
240,Acajutla,13.5928,-89.8275,302.39,74,47,2.5,SV,1697142902
241,Ishigaki,24.3448,124.1572,297.22,88,75,4.63,JP,1697143057
242,Ancud,-41.8697,-73.8203,283.17,68,49,1.31,CL,1697143057
243,Hobyo,5.3505,48.5268,300.12,83,1,4.58,SO,1697143057
244,Manokwari,-0.8667,134.0833,299.01,78,75,1.6,ID,1697143057
245,Ouezzane,34.7971,-5.5822,296.44,45,4,0.65,MA,1697143057
246,Nova Sintra,14.8667,-24.7167,297.7,77,99,2.26,CV,1697143057
247,Hinton,53.4001,-117.5857,286.54,57,17,1.73,CA,1697143057
248,Bhimunipatnam,17.8833,83.4333,298.83,79,42,0.95,IN,1697143057
249,Yeppoon,-23.1333,150.7333,287.03,78,0,2.1,AU,1697142471
250,Luderitz,-26.6481,15.1594,288.46,76,0,9.36,NA,1697142927
251,Yuncheng,35.0231,110.9928,287.17,78,48,1.04,CN,1697143058
252,Richmond,37.5538,-77.4603,298.75,49,20,2.06,US,1697142779
253,Santa Maria Da Vitoria,-13.3947,-44.1886,304.98,24,2,1.67,BR,1697143058
254,Berezovyy,51.6667,135.7,281.17,78,92,2.92,RU,1697143058
255,Khovd,48.0056,91.6419,280.99,43,3,1.93,MN,1697143038
256,Howard Springs,-12.497,131.047,298.61,80,10,0.97,AU,1697142934
257,George Town,5.4112,100.3354,300.11,93,20,1.54,MY,1697142869
258,Nikolayevsk-On-Amure,53.1406,140.73,280.52,80,96,2.31,RU,1697143058
259,Chui,-33.6971,-53.4616,282.79,63,1,5.0,UY,1697143058
260,Fisterra,42.9049,-9.2629,296.34,84,100,8.12,ES,1697143058
261,Talnakh,69.4865,88.3972,271.6,98,100,1.55,RU,1697142982
262,Opuwo,-18.0607,13.84,295.51,30,5,2.44,NA,1697143059
263,Kapoeta,4.7717,33.5903,300.38,54,100,1.92,SS,1697143059
264,Kill Devil Hills,36.0307,-75.676,294.25,74,100,1.54,US,1697143059
265,Galesong,-5.3166,119.3661,295.16,65,95,2.17,ID,1697143059
266,Karratha,-20.7377,116.8463,300.17,33,2,4.52,AU,1697143059
267,Fale Old Settlement,-9.3852,-171.2468,301.44,79,29,7.96,TK,1697143059
268,Antonio Enes,-16.2325,39.9086,297.96,81,27,5.83,MZ,1697143059
269,Nar'Yan-Mar,67.6713,53.087,274.32,76,100,4.02,RU,1697142796
270,Twin Falls,42.3505,-114.6445,285.34,47,20,6.69,US,1697143059
271,Waingapu,-9.6567,120.2641,298.04,84,72,3.01,ID,1697143059
272,Tiaret,35.371,1.317,290.84,16,0,2.57,DZ,1697143060
273,Hastings,50.8552,0.5729,290.53,46,100,5.98,GB,1697143060
274,Lobujya,27.95,86.8167,266.84,43,0,2.56,NP,1697143060
275,Phatthalung,7.5,100.0833,298.64,87,65,1.87,TH,1697143060
276,Naze,28.3667,129.4833,296.66,72,74,7.76,JP,1697143060
277,Okhotsk,59.3833,143.3,268.22,93,38,1.47,RU,1697143060
278,Miyako,39.6367,141.9525,284.63,76,3,3.0,JP,1697143060
279,Keflavik,64.0049,-22.5624,277.39,75,75,11.32,IS,1697143060
280,Sos'Va,59.1766,61.8558,274.85,94,100,6.26,RU,1697143060
281,Tangalle,6.024,80.7911,297.7,89,100,3.25,LK,1697143017
282,San Luis De La Loma,17.2706,-100.8939,301.93,80,42,2.6,MX,1697143061
283,Leava,-14.3,-178.1667,298.23,91,100,5.4,WF,1697143061
284,Naka,36.05,140.1667,291.32,87,28,2.15,JP,1697143061
285,Moranbah,-22.0016,148.0466,291.98,60,2,2.79,AU,1697143061
286,Viedma,-40.8135,-62.9967,288.95,33,44,6.06,AR,1697143061
287,Muleshoe,34.2265,-102.7238,299.95,17,0,11.25,US,1697143061
288,Federacion,-31.0062,-57.8996,289.59,49,1,4.29,AR,1697143061
289,Kamennomostskoye,43.7372,43.0514,279.99,42,6,2.26,RU,1697143061
290,Amga,60.8953,131.9608,275.36,97,100,0.89,RU,1697143061
291,Langsa,4.4683,97.9683,296.85,96,100,1.05,ID,1697143062
292,Pampierstad,-27.7832,24.6877,288.55,56,3,1.35,ZA,1697143062
293,Lata,40.1629,-8.3327,294.22,52,29,1.53,PT,1697143062
294,Bathsheba,13.2167,-59.5167,303.49,70,20,5.14,BB,1697143062
295,Petropavlovsk-Kamchatsky,53.0452,158.6483,276.18,73,75,6.71,RU,1697143062
296,Cidreira,-30.1811,-50.2056,288.3,66,100,5.19,BR,1697142955
297,Port Antonio,18.18,-76.4612,306.1,75,97,6.01,JM,1697143062
298,Al Kharj,24.155,47.3346,303.47,16,0,2.32,SA,1697143062
299,Kuching,1.55,110.3333,301.49,96,20,0.0,MY,1697143062
300,Bati,11.1833,40.0167,294.39,56,93,1.32,ET,1697143062
301,Montana,43.4125,23.225,289.51,50,4,1.42,BG,1697143062
302,Hithadhoo,-0.6,73.0833,300.46,72,92,5.44,MV,1697143063
303,New Norfolk,-42.7826,147.0587,282.87,78,100,2.78,AU,1697142935
304,Arraial Do Cabo,-22.9661,-42.0278,300.13,73,0,5.66,BR,1697142942
305,Shiloh,38.5614,-89.8973,300.0,47,0,5.66,US,1697143063
306,Hotan,37.0997,79.9269,288.42,24,0,1.67,CN,1697142990
307,Chilecito,-29.1619,-67.4974,292.51,25,2,5.45,AR,1697143063
308,Windhoek,-22.5594,17.0832,293.26,20,0,1.54,NA,1697142907
309,Gubkinskiy,64.434,76.5026,274.39,93,100,3.22,RU,1697143063
310,Mount Isa,-20.7333,139.5,297.02,27,9,4.63,AU,1697143063
311,Coahuayana De Hidalgo,18.7,-103.6583,301.48,80,78,1.74,MX,1697143063
312,Saint-Pierre,-21.3393,55.4781,295.97,78,75,2.06,RE,1697143063
313,Egilsstadir,65.2653,-14.3948,277.1,87,100,9.77,IS,1697143063
314,Andi,42.7836,46.2617,271.96,67,0,2.06,RU,1697143064
315,Guane,22.2025,-84.0875,304.05,67,83,5.87,CU,1697143064
316,Swift Current,50.2834,-107.8014,279.6,81,100,6.69,CA,1697143064
317,Weno,7.4515,151.8468,300.12,94,100,1.54,FM,1697143020
318,Bam,29.106,58.357,300.58,16,2,3.53,IR,1697143020
319,Guerrero Negro,27.9769,-114.0611,295.19,56,1,6.88,MX,1697143064
320,Newman,37.3138,-121.0208,297.2,37,4,2.68,US,1697142856
321,Gannan,47.9147,123.5031,283.58,52,0,2.28,CN,1697143064
322,Northwest Harborcreek,42.1494,-79.9946,289.4,70,0,4.63,US,1697143064
323,Tommot,58.9564,126.2925,283.81,67,76,8.12,RU,1697143064
324,Puerto Quijarro,-17.7833,-57.7667,311.35,26,26,2.37,BO,1697143064
325,Okehampton,50.7384,-4.0016,288.66,97,100,4.16,GB,1697143064
326,La'Ie,21.6477,-157.9253,303.13,66,1,2.24,US,1697143065
327,Virginia Beach,36.8529,-75.978,296.51,68,40,3.6,US,1697142822
328,Hammerfest,70.6634,23.6821,275.4,87,75,2.06,NO,1697143065
329,Ellsworth,44.5434,-68.4195,288.78,89,100,3.6,US,1697143065
330,Queenstown,-31.8976,26.8753,283.67,78,0,1.16,ZA,1697142842
331,Port Pirie,-33.1833,138.0167,282.52,84,2,2.5,AU,1697143065
332,Farafangana,-22.8167,47.8333,296.2,89,98,2.44,MG,1697143065
333,Ataq,14.5377,46.8319,294.93,78,10,3.07,YE,1697143065
334,Salina Cruz,16.1667,-95.2,304.72,66,62,7.54,MX,1697143065
335,La Ronge,55.1001,-105.2842,283.29,71,75,3.6,CA,1697143065
336,Pirane,-25.7324,-59.1088,288.55,57,100,3.11,AR,1697143065
337,Alesund,62.4723,6.1549,281.67,72,75,5.66,NO,1697143066
338,Castuera,38.732,-5.5439,295.55,25,9,2.61,ES,1697143066
339,Merizo Village,13.2658,144.6691,300.46,95,98,10.72,GU,1697143066
340,Lubbock,33.6001,-101.8338,304.47,25,20,1.79,US,1697143066
341,Sandnessjoen,66.0217,12.6316,278.38,81,20,1.54,NO,1697142998
342,Along,28.1667,94.7667,291.93,97,69,0.73,IN,1697143066
343,Tolanaro,-25.0319,46.9987,293.19,94,75,5.14,MG,1697143066
344,Nemuro,43.3236,145.575,285.01,73,0,4.84,JP,1697143066
345,Atafu Village,-8.5421,-172.5159,301.69,78,6,6.06,TK,1697143066
346,Touros,-5.1989,-35.4608,298.88,81,3,7.72,BR,1697143066
347,Alice Springs,-23.7,133.8833,285.9,41,1,3.09,AU,1697143066
348,Abadeh,31.1608,52.6506,289.1,36,20,1.03,IR,1697143067
349,Berdigestyakh,62.0989,126.6992,274.42,97,100,2.24,RU,1697143067
350,Okha,53.5739,142.9478,281.46,83,100,4.81,RU,1697143067
351,Afaahiti,-17.75,-149.2833,301.08,79,52,5.42,PF,1697143067
352,Chipinge,-20.1883,32.6236,291.83,74,6,2.68,ZW,1697143067
353,Gromitz,54.15,10.9667,282.17,80,1,2.33,DE,1697143067
354,Praia Da Vitoria,38.7333,-27.0667,293.29,83,20,3.58,PT,1697143067
355,Ouallam,14.3188,2.0866,307.27,19,25,3.26,NE,1697143067
356,Port Augusta,-32.5,137.7667,284.95,78,52,2.76,AU,1697143067
357,Taoudenni,22.6783,-3.9836,303.91,13,0,5.23,ML,1697142945
358,Flying Fish Cove,-10.4217,105.6791,297.97,83,75,5.14,CX,1697143067
359,Revda,56.801,59.9303,275.39,83,100,8.05,RU,1697143068
360,Howrah,22.5892,88.3103,301.15,89,20,0.0,IN,1697143043
361,Burao,9.5221,45.5336,298.47,58,91,3.32,SO,1697143068
362,Georgetown,5.4112,100.3354,300.11,93,20,1.54,MY,1697142778
363,Djibouti,11.5,42.5,298.85,75,5,6.1,DJ,1697143068
364,Cabedelo,-6.9811,-34.8339,300.52,80,4,7.34,BR,1697143068
365,Ilhabela,-23.7781,-45.3581,295.83,96,97,4.69,BR,1697143068
366,Yingkou,40.6648,122.2283,289.76,71,100,6.0,CN,1697143068
367,Gebeit,21.0667,36.3167,299.04,46,0,1.85,SD,1697143068
368,Mocimboa,-11.3167,40.35,295.8,92,44,2.09,MZ,1697143068
369,Leiyang,26.4024,112.8591,291.28,78,100,1.98,CN,1697143068
370,Saudarkrokur,65.7461,-19.6394,275.09,89,94,12.26,IS,1697143068
371,Nyurba,63.2842,118.3319,274.84,96,98,1.79,RU,1697142953
372,Tubarjal,30.4999,38.216,296.98,26,0,3.61,SA,1697143069
373,Esil,51.9556,66.4042,276.6,57,2,4.02,KZ,1697143069
374,Andalgala,-27.5819,-66.3165,287.55,30,83,2.41,AR,1697143069
375,Kingston,17.997,-76.7936,305.68,71,20,5.14,JM,1697143045
376,Nago,26.5881,127.9761,295.39,66,22,4.8,JP,1697143069
377,San Pedro Pochutla,15.7333,-96.4667,304.99,64,100,6.1,MX,1697143069
378,La Libertad,-2.2333,-80.9,299.96,74,40,3.6,EC,1697143069
379,Puerto Baquerizo Moreno,-0.9,-89.6,300.7,69,40,5.14,EC,1697143069
380,Peniche,39.3558,-9.3811,295.43,59,20,4.36,PT,1697143004
381,Kamaishi,39.2667,141.8833,285.6,75,3,3.16,JP,1697143070
382,Zhigalovo,54.8097,105.1578,283.19,71,94,1.79,RU,1697143070
383,Bandarbeyla,9.4942,50.8122,299.13,88,4,2.17,SO,1697143070
384,Mpika,-11.8343,31.4529,294.54,35,86,2.14,ZM,1697143070
385,Monclova,26.9,-101.4167,305.16,46,1,1.34,MX,1697142796
386,Kolonia Town,6.964,158.206,298.15,100,100,2.06,FM,1697143070
387,Shiraoi,42.55,141.35,282.15,79,0,2.22,JP,1697143070
388,Alvaraes,-3.2208,-64.8042,306.08,77,97,2.18,BR,1697143070
389,Yendi,9.4427,-0.0099,299.53,75,24,1.68,GH,1697143070
390,Labuan,5.2767,115.2417,300.35,94,20,0.0,MY,1697143070
391,Qianjiang,30.4151,112.8859,287.76,88,73,2.11,CN,1697143070
392,Port Isabel,26.0734,-97.2086,305.19,66,0,4.63,US,1697142483
393,Ciudad Lazaro Cardenas,17.9583,-102.2,301.16,81,60,1.77,MX,1697142817
394,Byron Bay,-28.65,153.6167,293.06,69,3,3.24,AU,1697142887
395,Huarmey,-10.0681,-78.1522,294.62,74,90,4.76,PE,1697143071
396,Fuxin,42.0156,121.6589,287.49,77,100,1.62,CN,1697143071
397,Beaufort West,-32.3567,22.583,287.05,70,1,2.48,ZA,1697143071
398,Rock Springs,41.5875,-109.2029,278.28,88,100,3.6,US,1697142811
399,Enewetak,11.3474,162.3373,301.66,69,14,4.3,MH,1697143001
400,Salinas,36.6777,-121.6555,302.03,44,0,2.57,US,1697142781
401,Trincomalee,8.5711,81.2335,298.33,90,100,4.43,LK,1697143071
402,Brisas De Zicatela,15.8369,-97.0419,304.44,55,40,3.6,MX,1697143071
403,Riverside,33.7333,-116.0508,300.6,13,0,3.09,US,1697142795
404,Raytown,39.0086,-94.4636,298.12,60,75,5.66,US,1697142900
405,Thulamahashi,-24.7246,31.1994,296.39,60,5,2.99,ZA,1697143071
406,Kayangel,8.0823,134.7173,300.94,81,91,7.86,PW,1697143072
407,Saint-Louis,16.3333,-15.0,304.51,48,53,6.1,SN,1697143072
408,Kiunga,-6.1219,141.2906,296.29,99,100,0.51,PG,1697142919
409,Remontnoye,46.5614,43.6501,278.92,52,0,5.21,RU,1697142924
410,Pyt-Yakh,60.7499,72.8582,275.18,87,20,3.27,RU,1697143072
411,Bac Lieu,9.285,105.7244,299.61,83,100,1.39,VN,1697143072
412,Pontes E Lacerda,-15.2261,-59.3353,300.64,68,98,0.81,BR,1697143072
413,Jasdan,22.0333,71.2,299.95,61,10,3.88,IN,1697143072
414,New Yekepa,7.5794,-8.5378,294.68,97,35,0.57,LR,1697143072
415,Walvis Bay,-22.9575,14.5053,288.68,72,0,4.12,NA,1697143072
416,Mar Del Plata,-38.0023,-57.5575,286.22,61,0,4.63,AR,1697142937
417,Monchegorsk,67.9397,32.8739,274.18,98,100,6.28,RU,1697143072
418,Winnemucca,40.973,-117.7357,287.18,41,20,1.54,US,1697142793
419,Tekeli,44.83,78.8239,286.12,41,100,3.07,KZ,1697143073
420,Praya,14.9215,-23.5087,301.45,78,40,4.12,CV,1697143073
421,Prieska,-29.6641,22.7474,288.48,45,0,6.99,ZA,1697143073
422,Darwin,-12.4611,130.8418,298.65,88,9,1.36,AU,1697143022
423,Palasa,18.7667,84.4167,297.71,83,17,1.47,IN,1697143073
424,Ati,13.2154,18.3353,304.63,42,65,5.35,TD,1697143073
425,Taft,31.7471,54.2088,292.12,37,20,4.12,IR,1697143073
426,Kamennomostskiy,44.2983,40.1856,281.65,70,1,2.23,RU,1697143073
427,Herval,-32.0236,-53.3956,284.67,66,30,3.64,BR,1697143073
428,Vanimo,-2.6741,141.3028,298.57,89,96,2.39,PG,1697143073
429,Vacaria,-28.5122,-50.9339,282.03,98,100,4.02,BR,1697143074
430,'Ain El Melh,34.8415,4.1638,291.85,37,0,2.12,DZ,1697143074
431,Golovchino,50.5341,35.797,286.2,66,100,8.13,RU,1697143074
432,Obo,5.3998,26.4869,293.86,93,66,1.39,CF,1697143074
433,Kiruna,67.8557,20.2251,268.66,68,99,3.09,SE,1697143074
434,Dawei,14.0833,98.2,297.39,93,98,1.41,MM,1697142911
435,Port Blair,11.6667,92.75,298.17,100,40,1.03,IN,1697143074
436,Amungan,15.3652,119.9582,299.82,78,99,1.95,PH,1697143074
437,Yonan-Up,37.9089,126.1611,288.66,63,100,1.65,KP,1697143074
438,Khandyga,62.6667,135.6,269.75,98,100,1.09,RU,1697143074
439,Drama,41.1544,24.1394,290.74,67,0,1.15,GR,1697143074
440,Sao Jose Da Coroa Grande,-8.8978,-35.1478,298.29,80,24,5.68,BR,1697143075
441,Khurba,50.4072,136.8819,280.85,84,53,2.24,RU,1697143075
442,Quilpue,-33.045,-71.4494,297.2,39,0,7.2,CL,1697143075
443,East London,-33.0153,27.9116,289.3,80,6,3.46,ZA,1697143075
444,Manthani,18.65,79.6667,298.48,71,39,0.86,IN,1697143075
445,Kiama,-34.6833,150.8667,286.69,67,0,5.36,AU,1697143013
446,Sao Joao Da Barra,-21.6403,-41.0511,301.2,77,6,9.96,BR,1697143075
447,Uturoa,-16.7333,-151.4333,299.13,70,10,6.6,PF,1697143075
448,Murghob,38.1702,73.9667,276.09,46,21,2.06,TJ,1697143075
449,Al Bawiti,28.3492,28.8659,295.08,54,0,3.54,EG,1697143075
450,Trzebiatow,54.0615,15.2648,283.64,81,14,4.32,PL,1697143075
451,Salumbar,24.1333,74.05,298.21,54,0,0.81,IN,1697143076
452,Figuig (Centre),32.1089,-1.2286,293.73,29,1,2.38,MA,1697143076
453,Kayyerkan,69.3786,87.7439,271.65,100,100,1.3,RU,1697143076
454,Pisco,-13.7,-76.2167,296.18,60,20,3.09,PE,1697143076
455,Bayanaul,50.7889,75.6956,276.84,92,96,1.17,KZ,1697143076
456,Vilyuysk,63.7553,121.6247,271.03,82,86,4.92,RU,1697143076
457,Buka,40.8108,69.1986,286.32,70,100,5.14,UZ,1697143076
458,Richards Bay,-28.783,32.0377,294.49,95,100,2.77,ZA,1697143076
459,Pundong,-7.9522,110.3486,296.48,92,94,2.18,ID,1697143076
460,Sao Felix Do Xingu,-6.6447,-51.995,306.9,31,34,1.03,BR,1697143077
461,Dolores,-36.3132,-57.6792,284.86,58,89,4.69,AR,1697143077
462,Mutoko,-17.397,32.2268,293.81,33,11,1.83,ZW,1697143077
463,San Luis,-33.295,-66.3356,293.99,20,3,1.62,AR,1697143077
464,Kalmunai,7.4167,81.8167,297.37,94,100,1.53,LK,1697143077
465,Olhao,37.0286,-7.8411,294.87,79,0,3.09,PT,1697143077
466,Caleta De Carquin,-11.0925,-77.6267,293.69,75,68,4.28,PE,1697143077
467,Kalabagh,32.965,71.557,300.37,23,16,1.03,PK,1697143077
468,Christchurch,-43.5333,172.6333,288.97,87,54,3.6,NZ,1697143059
469,Kununurra,-15.7667,128.7333,296.14,78,99,0.0,AU,1697143077
470,Gadani,25.1185,66.7299,300.27,77,57,3.26,PK,1697143078
471,Tanjung Pinang,0.9167,104.45,300.17,80,95,3.0,ID,1697143078
472,Pandan,14.0453,124.1694,299.97,83,45,2.33,PH,1697143078
473,Magadan,59.5667,150.8,268.61,74,13,4.02,RU,1697143078
474,Khash,28.2211,61.2158,295.26,16,0,1.6,IR,1697142959
475,Antsiranana,-12.2787,49.2917,296.66,80,21,5.37,MG,1697143078
476,Itoman,26.1247,127.6694,298.16,65,75,7.2,JP,1697143078
477,Ivdel',60.6911,60.4206,277.14,59,100,3.58,RU,1697143078
478,Sinabang,2.4803,96.3801,298.66,85,100,1.16,ID,1697143078
479,Alofi,-19.0595,-169.9187,300.09,57,40,5.66,NU,1697143078
480,Vitoria Da Conquista,-14.8661,-40.8394,297.47,35,6,2.77,BR,1697143078
481,Channarayapatna,12.9044,76.3917,294.54,83,96,2.4,IN,1697143079
482,Porto Novo,6.4965,2.6036,298.88,87,72,2.7,BJ,1697143032
483,Buala,-8.145,159.5921,300.26,82,100,1.64,SB,1697143079
484,Qarauyl,48.9451,79.255,278.89,86,100,6.26,KZ,1697143079
485,Yaren,-0.5472,166.916,301.91,74,45,3.89,NR,1697143079
486,Kirensk,57.7853,108.1119,281.49,66,100,4.47,RU,1697142797
487,Longquan,24.6719,102.1613,288.54,96,98,1.28,CN,1697143079
488,Choyr,46.3611,108.3611,277.08,51,0,1.38,MN,1697143079
489,Caleta Olivia,-46.4393,-67.5281,287.87,37,6,2.2,AR,1697143079
490,Quepos,9.4236,-84.1652,301.88,77,72,1.43,CR,1697143079
491,Jinghong,21.991,100.7341,293.66,99,100,0.07,CN,1697143080
492,Usinsk,65.9939,57.5281,272.08,98,100,2.24,RU,1697143080
493,Pimentel,-6.8367,-79.9342,297.31,64,20,8.23,PE,1697143080
494,Bychawa,51.0161,22.533,288.07,95,100,3.76,PL,1697143080
495,Incline Village,39.2513,-119.973,287.02,38,40,2.57,US,1697143080
496,Sao Gabriel Da Cachoeira,-0.1303,-67.0892,302.48,64,99,0.26,BR,1697143080
497,Huacho,-11.1067,-77.605,293.96,74,66,4.16,PE,1697143080
498,Nyala,12.05,24.8833,302.59,24,6,2.7,SD,1697143080
499,Inirida,3.8653,-67.9239,305.2,56,80,0.94,CO,1697143080
500,Luena,-11.7833,19.9167,297.25,64,8,3.09,AO,1697143080
501,Whakatane,-37.9585,176.9854,290.31,74,2,1.34,NZ,1697143081
502,Quang Ngai,15.1167,108.8,296.96,94,98,1.29,VN,1697143081
503,Bijar,35.8668,47.6051,281.12,76,2,2.13,IR,1697143081
504,Abalak,58.1286,68.5944,279.46,85,100,5.18,RU,1697143081
505,Tual,-5.6667,132.75,300.08,85,100,6.48,ID,1697143081
506,Carutapera,-1.195,-46.02,300.16,75,19,3.85,BR,1697142966
507,Severo-Yeniseyskiy,60.3725,93.0408,276.8,91,100,6.26,RU,1697143081
508,Achinsk,56.2694,90.4993,278.25,89,100,1.79,RU,1697143081
509,Arar,30.9753,41.0381,299.16,24,0,1.54,SA,1697143081
510,Vizinga,61.0749,50.1031,277.95,95,100,4.62,RU,1697143082
511,Petukhovo,55.0692,67.9019,276.6,73,44,6.18,RU,1697143082
512,Changji,44.0167,87.3167,287.59,44,0,1.0,CN,1697143082
513,Nicoya,10.1483,-85.452,301.65,83,90,2.1,CR,1697143082
514,Nishon Tumani,38.694,65.6751,284.29,87,100,5.14,UZ,1697143082
515,Conceicao Do Araguaia,-8.2578,-49.2647,306.88,31,96,0.23,BR,1697143082
516,Al Jubayl,27.0112,49.6583,303.07,65,0,2.56,SA,1697143082
517,Celestun,20.8667,-90.4,303.79,75,78,5.2,MX,1697143082
518,Necochea,-38.5473,-58.7368,284.93,52,0,1.67,AR,1697143082
519,Birobidzhan,48.8,132.95,284.16,71,83,3.06,RU,1697143083
520,Carbondale,37.7273,-89.2168,299.15,51,0,6.17,US,1697143083
521,Kosh-Agach,50.0,88.6667,279.43,48,100,0.89,RU,1697143083
522,Garoua,9.3,13.4,300.37,100,0,2.06,CM,1697143083
523,Tadine,-21.55,167.8833,294.47,81,89,7.19,NC,1697143083
524,Constitucion,-35.3333,-72.4167,288.76,60,0,7.38,CL,1697143083
525,Ola,59.5833,151.2833,268.94,57,24,3.35,RU,1697143083
526,Augusto Correa,-1.0217,-46.635,300.12,74,43,3.29,BR,1697143083
527,Birao,10.2849,22.7882,299.56,62,20,1.88,CF,1697143083
528,Torres,-29.3353,-49.7269,288.61,82,100,5.1,BR,1697143084
529,Knyaze-Volkonskoye,48.4642,135.4567,285.34,46,82,4.92,RU,1697143084
530,Codrington,-38.2667,141.9667,285.08,91,100,6.72,AU,1697143084
531,Murzuq,25.9155,13.9184,296.88,29,0,4.18,LY,1697143084
532,Nguigmi,14.2495,13.1092,304.33,37,35,2.31,NE,1697143084
533,Lae,-6.7221,146.9847,296.52,81,100,2.28,PG,1697143084
534,St. John'S,47.5649,-52.7093,286.79,97,100,4.63,CA,1697142940
535,Mount Gambier,-37.8333,140.7667,285.3,84,100,4.84,AU,1697143084
536,Illizi,26.4833,8.4667,300.04,26,31,3.54,DZ,1697143084
537,Newtown,-33.8984,151.1775,288.23,58,0,5.66,AU,1697143084
538,Mecca,21.4267,39.8261,302.35,52,0,0.98,SA,1697143084
539,Veraval,20.9,70.3667,299.72,81,2,3.78,IN,1697143085
540,Buinsk,54.95,48.2833,281.47,61,100,10.8,RU,1697143085
541,Quelimane,-17.8786,36.8883,298.12,94,0,6.17,MZ,1697143085
542,Bururi,-3.85,29.6333,289.7,81,95,2.2,BI,1697143085
543,Dondo,-19.6094,34.7431,298.88,86,64,3.59,MZ,1697143085
544,Kepno,51.2784,17.9891,287.94,89,99,2.87,PL,1697143085
545,Atherton,53.5237,-2.4935,285.76,86,100,0.89,GB,1697142891
546,Albertina,-22.2008,-46.6158,294.68,87,69,2.23,BR,1697143085
547,Waddan,29.1614,16.139,296.2,44,10,5.48,LY,1697143085
548,Lompoc,34.6391,-120.4579,301.92,41,0,4.12,US,1697143086
549,Kristiansund,63.1115,7.732,280.18,81,75,3.09,NO,1697143018
550,Qarah Zia' Od Din,38.8915,45.0255,284.63,64,0,0.76,IR,1697143086
551,Padang,-0.9492,100.3543,297.18,92,76,1.36,ID,1697143086
552,Greenville,35.6127,-77.3663,295.17,79,40,2.57,US,1697142840
553,Nuuk,64.1835,-51.7216,275.45,65,100,2.95,GL,1697143086
554,Floro,61.5996,5.0328,282.13,71,100,9.26,NO,1697143086
555,Grand Falls-Windsor,48.9332,-55.6649,283.94,88,100,1.89,CA,1697143086
556,Paramonga,-10.6667,-77.8333,293.44,77,79,4.32,PE,1697143086
557,Hornell,42.3279,-77.6611,291.38,68,40,4.48,US,1697143074
558,Vilyuchinsk,52.9306,158.4028,277.0,84,99,2.53,RU,1697142928
559,Tindouf,27.6711,-8.1474,301.4,18,0,3.6,DZ,1697142978
560,Komatipoort,-25.4332,31.9548,297.07,83,68,2.28,ZA,1697143087
561,Pangai,-19.8,-174.35,299.21,65,40,4.63,TO,1697143087
562,Lubango,-14.9172,13.4925,292.07,63,81,1.54,AO,1697143087
563,Mahibadhoo,3.7833,72.9667,300.92,74,71,5.33,MV,1697142824
564,Marksville,31.128,-92.0662,299.18,43,4,0.84,US,1697143087
565,Ballina,-28.8667,153.5667,294.14,69,3,2.24,AU,1697143087
566,Lorengau,-2.0226,147.2712,300.34,82,19,1.73,PG,1697143087
567,Santo Antonio,-6.3106,-35.4789,297.74,79,24,6.0,BR,1697143087
568,Shakawe,-18.3667,21.85,301.63,30,94,2.1,BW,1697143087
569,Brookings,44.3114,-96.7984,280.43,97,100,9.77,US,1697143066
570,Villa Dolores,-31.9459,-65.1896,294.76,20,2,1.68,AR,1697143088
571,Yacimiento Rio Turbio,-51.5732,-72.3508,282.81,50,20,10.29,AR,1697143088
572,Salym,60.0625,71.4789,274.88,87,99,3.68,RU,1697143088
573,Tobelo,1.7284,128.0095,299.12,83,100,2.18,ID,1697143088
574,Muisne,0.6,-80.0333,299.0,78,84,3.78,EC,1697143088
575,Mossel Bay,-34.1831,22.146,289.11,86,37,8.54,ZA,1697143088
576,Cambria,35.5641,-121.0808,300.47,44,0,2.93,US,1697143088
577,Zambezi,-13.5432,23.1047,294.19,78,99,3.02,ZM,1697143088
578,Nantucket,41.2835,-70.0995,292.21,79,0,3.6,US,1697143032
579,Bellampalli,19.0558,79.493,298.33,67,33,0.3,IN,1697143089
580,Colonel Hill,22.7667,-74.2167,302.5,73,98,3.22,BS,1697143089
581,Islamorada,24.9243,-80.6278,305.37,86,100,2.68,US,1697142913
582,Mount Pearl,47.5166,-52.7813,286.33,96,100,4.63,CA,1697142862
583,Masterton,-40.9597,175.6575,284.75,63,17,3.35,NZ,1697143089
584,Sur,22.5667,59.5289,302.23,61,1,3.79,OM,1697143089
585,Samsat,37.5819,38.4742,292.73,29,0,1.84,TR,1697143089
586,Sumbuya,7.6467,-11.9611,297.17,97,100,1.3,SL,1697143089
587,Shentala,54.45,51.4833,277.29,42,100,10.33,RU,1697143089
588,Requena,39.4883,-1.1004,289.55,78,0,1.45,ES,1697143090
589,Katsuura,35.1333,140.3,291.03,65,5,5.47,JP,1697143090
590,Laojunmiao,39.8333,97.7333,280.13,32,23,1.87,CN,1697143006
591,Totness,5.8833,-56.3167,301.91,74,3,5.39,SR,1697143090
592,Santa Rosalia,27.3167,-112.2833,300.93,36,0,2.13,MX,1697143090
593,Fort Bragg,35.139,-79.006,296.0,64,100,4.63,US,1697143090
594,Pacific Grove,36.6177,-121.9166,298.92,48,0,2.57,US,1697143090
595,Birjand,32.8663,59.2211,291.41,36,100,6.17,IR,1697143090
596,Flin Flon,54.7682,-101.865,284.06,71,75,1.54,CA,1697143090
